{"latitude"=>"53.2451022", "user_id"=>4, "name"=>"Ian Kehoe", "longitude"=>"-6.238335"}
{"latitude"=>"53.1302756", "user_id"=>5, "name"=>"Nora Dempsey", "longitude"=>"-6.2397222"}
{"latitude"=>"53.1229599", "user_id"=>6, "name"=>"Theresa Enright", "longitude"=>"-6.2705202"}
{"latitude"=>"54.0894797", "user_id"=>8, "name"=>"Eoin Ahearn", "longitude"=>"-6.18671"}
{"latitude"=>"53.008769", "user_id"=>11, "name"=>"Richard Finnegan", "longitude"=>"-6.1056711"}
{"latitude"=>"53", "user_id"=>13, "name"=>"Olive Ahearn", "longitude"=>"-7"}
{"latitude"=>"54.080556", "user_id"=>23, "name"=>"Eoin Gallagher", "longitude"=>"-6.361944"}
{"latitude"=>"54.133333", "user_id"=>24, "name"=>"Rose Enright", "longitude"=>"-6.433333"}
{"latitude"=>"53.038056", "user_id"=>26, "name"=>"Stephen McArdle", "longitude"=>"-7.653889"}
{"latitude"=>"53.807778", "user_id"=>28, "name"=>"Charlie Halligan", "longitude"=>"-7.714444"}
{"latitude"=>"53.74452", "user_id"=>29, "name"=>"Oliver Ahearn", "longitude"=>"-7.11167"}
{"latitude"=>"53.761389", "user_id"=>30, "name"=>"Nick Enright", "longitude"=>"-7.2875"}
{"latitude"=>"53.1489345", "user_id"=>31, "name"=>"Alan Behan", "longitude"=>"-6.8422408"}
{"latitude"=>"53.0033946", "user_id"=>39, "name"=>"Lisa Ahearn", "longitude"=>"-6.3877505"}
